[
  {
    "city": "Chelan",
    "state": "Washington",
    "country": "United States",
    "name": "Steliko Ridge Trail #1454",
    "lat": 47.78097,
    "lon": -120.26159,
    "url": "http://www.singletracks.com/item.php?c=1&i=9812",
    "length": 6,
    "thumb": null,
    "rating": 0
  },
  {
    "city": "Coldwater",
    "state": "Missouri",
    "country": "United States",
    "name": "Arkabutla Lake",
    "lat": 34.713192,
    "lon": -90.096033,
    "url": "http://www.singletracks.com/item.php?c=1&i=273",
    "length": 5,
    "thumb": "http://images.singletracks.com/2009/trails/01/1112718427.jpg",
    "rating": 3.67
  },
  {
    "city": "Riverdale",
    "state": "Utah",
    "country": "United States",
    "name": "Riverdale Parkway",
    "lat": 41.20034,
    "lon": -111.99298,
    "url": "http://www.singletracks.com/item.php?c=1&i=8443",
    "length": 2,
    "thumb": "http://images.singletracks.com/2014/11/IMG_20141102_171851.jpg",
    "rating": 5
  },
  {
    "city": "Athens",
    "state": "Georgia",
    "country": "United States",
    "name": "The Poop Loop",
    "lat": 33.94428,
    "lon": -83.36139,
    "url": "http://www.singletracks.com/item.php?c=1&i=3643",
    "length": 10,
    "thumb": null,
    "rating": 0
  },
  {
    "city": "Tallulah Falls",
    "state": "Georgia",
    "country": "United States",
    "name": "Tallulah Gorge State Park",
    "lat": 34.738562,
    "lon": -83.394118,
    "url": "http://www.singletracks.com/item.php?c=1&i=596",
    "length": 11,
    "thumb": "http://images.singletracks.com/2010/08/IMG_1094-0.jpg",
    "rating": 2.63
  },
  {
    "city": "Asheville",
    "state": "North Carolina",
    "country": "United States",
    "name": "Biltmore Trails",
    "lat": 35.55533,
    "lon": -82.58463,
    "url": "http://www.singletracks.com/item.php?c=1&i=2629",
    "length": 33,
    "thumb": "http://images.singletracks.com/2014/10/20141009_14233947162.jpg",
    "rating": 2.5
  },
  {
    "city": "Hanmer Springs",
    "state": null,
    "country": "New Zealand",
    "name": "Rainbow Trail",
    "lat": -42.52288,
    "lon": 172.82918,
    "url": "http://www.singletracks.com/item.php?c=1&i=10365",
    "length": 70,
    "thumb": "http://images.singletracks.com/2015/02/Q3988.jpg",
    "rating": 3
  },
  {
    "city": "Chelan",
    "state": "Washington",
    "country": "United States",
    "name": "Cougar Ridge Trail #1418",
    "lat": 47.84277,
    "lon": -120.55492,
    "url": "http://www.singletracks.com/item.php?c=1&i=9759",
    "length": 7,
    "thumb": null,
    "rating": 0
  },
  {
    "city": "Acworth",
    "state": "Georgia",
    "country": "United States",
    "name": "Allatoona Creek",
    "lat": 34.01683,
    "lon": -84.72545,
    "url": "http://www.singletracks.com/item.php?c=1&i=4330",
    "length": 14,
    "thumb": "http://images.singletracks.com/2012/04/GOPR1593-0.jpg",
    "rating": 4.08
  },
  {
    "city": "Delta Junction",
    "state": "Alaska",
    "country": "United States",
    "name": "Coal Mine Road",
    "lat": 63.71018,
    "lon": -145.79942,
    "url": "http://www.singletracks.com/item.php?c=1&i=68",
    "length": 8,
    "thumb": null,
    "rating": 0
  },
  {
    "city": "Moab",
    "state": "Utah",
    "country": "United States",
    "name": "Bartlett Wash",
    "lat": 38.71761,
    "lon": -109.78539,
    "url": "http://www.singletracks.com/item.php?c=1&i=1664",
    "length": 5,
    "thumb": "http://images.singletracks.com/2009/trails/01/1664-1201708882.jpg",
    "rating": 4
  },
  {
    "city": "Buena Vista",
    "state": "Colorado",
    "country": "United States",
    "name": "Salt Creek Trail",
    "lat": 38.97012,
    "lon": -106.05783,
    "url": "http://www.singletracks.com/item.php?c=1&i=9026",
    "length": 13,
    "thumb": "http://images.singletracks.com/2014/09/2014-08-29154451-2.jpg",
    "rating": 4
  },
  {
    "city": "Cedar Falls",
    "state": "Iowa",
    "country": "United States",
    "name": "Ulrich Park",
    "lat": 42.54938,
    "lon": -92.48514,
    "url": "http://www.singletracks.com/item.php?c=1&i=2009",
    "length": 3,
    "thumb": "http://images.singletracks.com/2012/07/DSCN0036-0.jpg",
    "rating": 3
  },
  {
    "city": "Plymouth",
    "state": "Wisconsin",
    "country": "United States",
    "name": "Greenbush",
    "lat": 43.75046,
    "lon": -88.10325,
    "url": "http://www.singletracks.com/item.php?c=1&i=3806",
    "length": 9,
    "thumb": "http://images.singletracks.com/2012/05/IMAG0075-0.jpg",
    "rating": 3.9
  },
  {
    "city": "Banff",
    "state": "Alberta",
    "country": "Canada",
    "name": "Surprise Corner to Hoodoos",
    "lat": 51.16715,
    "lon": -115.55907,
    "url": "http://www.singletracks.com/item.php?c=1&i=8995",
    "length": 3,
    "thumb": null,
    "rating": 0
  },
  {
    "city": "Eagan",
    "state": "Minnesota",
    "country": "United States",
    "name": "Lebanon Hills",
    "lat": 44.78266,
    "lon": -93.18888,
    "url": "http://www.singletracks.com/item.php?c=1&i=270",
    "length": 11,
    "thumb": "http://images.singletracks.com/2013/06/2013-06-08-09-12-33-1-0.jpg",
    "rating": 4.67
  },
  {
    "city": "Keystone",
    "state": "Colorado",
    "country": "United States",
    "name": "Westridge Loop",
    "lat": 39.59936,
    "lon": -105.97488,
    "url": "http://www.singletracks.com/item.php?c=1&i=2697",
    "length": 18,
    "thumb": "http://images.singletracks.com/2009/trails/02/2697-1217216939.jpg",
    "rating": 3.14
  },
  {
    "city": "Nottinghamshire",
    "state": null,
    "country": "United Kingdom",
    "name": "Kitchener Trail",
    "lat": 0,
    "lon": 0,
    "url": "http://www.singletracks.com/item.php?c=1&i=6004",
    "length": 10,
    "thumb": null,
    "rating": 3
  },
  {
    "city": "Frisco",
    "state": "Texas",
    "country": "United States",
    "name": "Northwest Community Park",
    "lat": 33.20155,
    "lon": -96.86708,
    "url": "http://www.singletracks.com/item.php?c=1&i=5863",
    "length": 7,
    "thumb": null,
    "rating": 0
  },
  {
    "city": "México City - Tepoztlan",
    "state": null,
    "country": "Mexico",
    "name": "A través del mar de lava. Across the lava sea",
    "lat": 19.13516,
    "lon": -99.17453,
    "url": "http://www.singletracks.com/item.php?c=1&i=7000",
    "length": 40,
    "thumb": "http://images.singletracks.com/2013/06/2013-06-01-12-19-51-0.jpg",
    "rating": 3
  },
  {
    "city": "Rocky Mountain House",
    "state": "Alberta",
    "country": "Canada",
    "name": "Chambers Creek Provincial Recreation Area",
    "lat": 52.452036,
    "lon": -115.308164,
    "url": "http://www.singletracks.com/item.php?c=1&i=6700",
    "length": 0,
    "thumb": null,
    "rating": 0
  },
  {
    "city": "Casper",
    "state": "Wyoming",
    "country": "United States",
    "name": "Muddy Mountain trail system",
    "lat": 0,
    "lon": 0,
    "url": "http://www.singletracks.com/item.php?c=1&i=10012",
    "length": 15,
    "thumb": null,
    "rating": 0
  },
  {
    "city": "Hermosillo Sonora",
    "state": "All",
    "country": "Mexico",
    "name": "Sangrienta,cimarron,adrenalina",
    "lat": 29.14629,
    "lon": -110.95269,
    "url": "http://www.singletracks.com/item.php?c=1&i=3826",
    "length": 5,
    "thumb": "http://images.singletracks.com/2012/08/cdv_photo_001-1.jpg",
    "rating": 0
  },
  {
    "city": "Richmond",
    "state": "Virginia",
    "country": "United States",
    "name": "Powhite Park",
    "lat": 37.51761,
    "lon": -77.52771,
    "url": "http://www.singletracks.com/item.php?c=1&i=881",
    "length": 8,
    "thumb": "http://images.singletracks.com/2012/05/IMG_3674-0.jpg",
    "rating": 3.58
  },
  {
    "city": "Blue Ridge",
    "state": "Georgia",
    "country": "United States",
    "name": "Hickey Knob",
    "lat": 34.80684,
    "lon": -84.27535,
    "url": "http://www.singletracks.com/item.php?c=1&i=3770",
    "length": 5,
    "thumb": null,
    "rating": 3
  },
  {
    "city": "Sisters",
    "state": "Oregon",
    "country": "United States",
    "name": "Stevens Canyon Loop",
    "lat": 44.36553,
    "lon": -121.53368,
    "url": "http://www.singletracks.com/item.php?c=1&i=8551",
    "length": 20,
    "thumb": null,
    "rating": 0
  },
  {
    "city": "Port Orchard",
    "state": "Washington",
    "country": "United States",
    "name": "Banner Forest",
    "lat": 47.4859,
    "lon": -122.54665,
    "url": "http://www.singletracks.com/item.php?c=1&i=2938",
    "length": 20,
    "thumb": "http://images.singletracks.com/2014/04/photo-1.jpg",
    "rating": 4.43
  },
  {
    "city": "Crested Butte",
    "state": "Colorado",
    "country": "United States",
    "name": "Trail 401",
    "lat": 38.96597,
    "lon": -106.99392,
    "url": "http://www.singletracks.com/item.php?c=1&i=942",
    "length": 14,
    "thumb": "http://images.singletracks.com/2014/08/image95063.jpg",
    "rating": 4.65
  },
  {
    "city": "Twisp",
    "state": "Washington",
    "country": "United States",
    "name": "Twisp River Trail #440",
    "lat": 48.3752,
    "lon": -120.40755,
    "url": "http://www.singletracks.com/item.php?c=1&i=9841",
    "length": 8,
    "thumb": null,
    "rating": 0
  },
  {
    "city": "New Paltz",
    "state": "New York",
    "country": "United States",
    "name": "Spring Farm",
    "lat": 41.77904,
    "lon": -74.12608,
    "url": "http://www.singletracks.com/item.php?c=1&i=3819",
    "length": 10,
    "thumb": "http://images.singletracks.com/2010/06/trail-0.jpg",
    "rating": 3
  },
  {
    "city": "Casper",
    "state": "Wyoming",
    "country": "United States",
    "name": "Eadsville Trail",
    "lat": 42.73795,
    "lon": -106.31849,
    "url": "http://www.singletracks.com/item.php?c=1&i=10309",
    "length": 0,
    "thumb": null,
    "rating": 0
  },
  {
    "city": "Wise River",
    "state": "Montana",
    "country": "United States",
    "name": "Dry Creek Loop",
    "lat": 45.92895,
    "lon": -113.10142,
    "url": "http://www.singletracks.com/item.php?c=1&i=4050",
    "length": 24,
    "thumb": "http://images.singletracks.com/2014/06/image79034.jpg",
    "rating": 0
  },
  {
    "city": "Hinton",
    "state": "Alberta",
    "country": "Canada",
    "name": "Maxwell Lake / Beaver Board Walk",
    "lat": 53.39156,
    "lon": -117.60099,
    "url": "http://www.singletracks.com/item.php?c=1&i=8723",
    "length": 2,
    "thumb": "http://images.singletracks.com/2014/07/GOPR0068.jpg",
    "rating": 4
  },
  {
    "city": "Bakio, Euskadi",
    "state": "All",
    "country": "Spain",
    "name": "Hills Above Bakio",
    "lat": 0,
    "lon": 0,
    "url": "http://www.singletracks.com/item.php?c=1&i=3005",
    "length": 20,
    "thumb": null,
    "rating": 0
  },
  {
    "city": "Grapevine",
    "state": "Texas",
    "country": "United States",
    "name": "Knob Hill Grapevine Lake",
    "lat": 33.04443,
    "lon": -97.20731,
    "url": "http://www.singletracks.com/item.php?c=1&i=2189",
    "length": 10,
    "thumb": "http://images.singletracks.com/2009/trails/02/2189-1185978186.jpg",
    "rating": 4.29
  },
  {
    "city": "Malabar",
    "state": "Florida",
    "country": "United States",
    "name": "Cameron Wildlife Preserve",
    "lat": 27.98991,
    "lon": -80.61762,
    "url": "http://www.singletracks.com/item.php?c=1&i=7701",
    "length": 0,
    "thumb": "http://images.singletracks.com/2013/11/2-0.jpg",
    "rating": 3.67
  },
  {
    "city": "Hamilton",
    "state": "New York",
    "country": "United States",
    "name": "Brookfield State Lands",
    "lat": 42.72835,
    "lon": -75.40604,
    "url": "http://www.singletracks.com/item.php?c=1&i=906",
    "length": 140,
    "thumb": "http://images.singletracks.com/2009/trails/09/906-1217620216.jpg",
    "rating": 5
  },
  {
    "city": "East Peoria",
    "state": "Illinois",
    "country": "United States",
    "name": "Farmdale Reservoir Recreation Area",
    "lat": 40.67589,
    "lon": -89.50161,
    "url": "http://www.singletracks.com/item.php?c=1&i=873",
    "length": 18,
    "thumb": "http://images.singletracks.com/2009/trails/01/1137808298.jpg",
    "rating": 4.56
  },
  {
    "city": "Moab",
    "state": "Utah",
    "country": "United States",
    "name": "Poison Spider Mesa",
    "lat": 38.53284,
    "lon": -109.60943,
    "url": "http://www.singletracks.com/item.php?c=1&i=3039",
    "length": 13,
    "thumb": "http://images.singletracks.com/2010/05/Poison-Spider-0.jpg",
    "rating": 2.75
  },
  {
    "city": "Damascus",
    "state": "Virginia",
    "country": "United States",
    "name": "Bushwhacker Trail",
    "lat": 36.65661,
    "lon": -81.70439,
    "url": "http://www.singletracks.com/item.php?c=1&i=1582",
    "length": 15,
    "thumb": "http://images.singletracks.com/2009/trails/01/1142747627.jpg",
    "rating": 3.33
  },
  {
    "city": "Sheboygan",
    "state": "Wisconsin",
    "country": "United States",
    "name": "Koehler-andre Black River Trail",
    "lat": 43.6716,
    "lon": -87.71793,
    "url": "http://www.singletracks.com/item.php?c=1&i=5136",
    "length": 3,
    "thumb": "http://images.singletracks.com/2012/05/IMAG0063-0.jpg",
    "rating": 1
  },
  {
    "city": "Cle Elum",
    "state": "Washington",
    "country": "United States",
    "name": "Manastash Ridge Trail #1388",
    "lat": 47.008,
    "lon": -121.00374,
    "url": "http://www.singletracks.com/item.php?c=1&i=9657",
    "length": 17,
    "thumb": null,
    "rating": 0
  },
  {
    "city": "Auburn",
    "state": "California",
    "country": "United States",
    "name": "American River Confluence Trails",
    "lat": 38.91661,
    "lon": -121.0359,
    "url": "http://www.singletracks.com/item.php?c=1&i=750",
    "length": 7,
    "thumb": "http://www.singletracks.com/./ra-content/images/uploads/2013/09/image-17.jpg",
    "rating": 3.67
  },
  {
    "city": "Salisbury/ Delmar",
    "state": "Maryland",
    "country": "United States",
    "name": "Naylor Mill Park",
    "lat": 38.41281,
    "lon": -75.59037,
    "url": "http://www.singletracks.com/item.php?c=1&i=1261",
    "length": 7,
    "thumb": "http://images.singletracks.com/2013/01/2013-01-01-12-14-01-334-0.jpg",
    "rating": 4.18
  },
  {
    "city": "Westhampton",
    "state": "Massachusetts",
    "country": "United States",
    "name": "Whites Reservior",
    "lat": 42.25438,
    "lon": -72.78663,
    "url": "http://www.singletracks.com/item.php?c=1&i=5379",
    "length": 16,
    "thumb": null,
    "rating": 0
  },
  {
    "city": "Bergschenhoek",
    "state": null,
    "country": "Netherlands",
    "name": "Bergschenhoek",
    "lat": 0,
    "lon": 0,
    "url": "http://www.singletracks.com/item.php?c=1&i=9556",
    "length": 4,
    "thumb": null,
    "rating": 0
  },
  {
    "city": "Morrisville",
    "state": "North Carolina",
    "country": "United States",
    "name": "Lake Johnson",
    "lat": 35.76286,
    "lon": -78.71459,
    "url": "http://www.singletracks.com/item.php?c=1&i=642",
    "length": 2,
    "thumb": "http://images.singletracks.com/2014/02/mobile-1393084692-0.jpg",
    "rating": 3
  },
  {
    "city": "Ocoee",
    "state": "Tennessee",
    "country": "United States",
    "name": "Brush Creek",
    "lat": 35.03609,
    "lon": -84.43653,
    "url": "http://www.singletracks.com/item.php?c=1&i=2346",
    "length": 7,
    "thumb": "http://images.singletracks.com/2011/08/brush-creek-view-0.jpg",
    "rating": 4.64
  },
  {
    "city": "Raleigh",
    "state": "North Carolina",
    "country": "United States",
    "name": "Ligon mill",
    "lat": 0,
    "lon": 0,
    "url": "http://www.singletracks.com/item.php?c=1&i=6358",
    "length": 5,
    "thumb": null,
    "rating": 0
  },
  {
    "city": "Alpine",
    "state": "Arizona",
    "country": "United States",
    "name": "War Finance Trail #9",
    "lat": 33.48159,
    "lon": -109.47494,
    "url": "http://www.singletracks.com/item.php?c=1&i=9526",
    "length": 3,
    "thumb": null,
    "rating": 0
  },
  {
    "city": "Cle Elum",
    "state": "Washington",
    "country": "United States",
    "name": "North Fork Taneum Trail #1377",
    "lat": 47.11377,
    "lon": -120.90242,
    "url": "http://www.singletracks.com/item.php?c=1&i=9732",
    "length": 16,
    "thumb": null,
    "rating": 0
  },
  {
    "city": "Lecco",
    "state": null,
    "country": "Italy",
    "name": "Foppa",
    "lat": 0,
    "lon": 0,
    "url": "http://www.singletracks.com/item.php?c=1&i=8942",
    "length": 7,
    "thumb": null,
    "rating": 0
  },
  {
    "city": "Tombstone",
    "state": "Arizona",
    "country": "United States",
    "name": "Fairbank Loop Trail",
    "lat": 31.72233,
    "lon": -110.18584,
    "url": "http://www.singletracks.com/item.php?c=1&i=4930",
    "length": 6,
    "thumb": "http://images.singletracks.com/2011/11/Over-the-bridge-2-0.jpg",
    "rating": 2
  },
  {
    "city": "Albany",
    "state": "New York",
    "country": "United States",
    "name": "Mohawk Hudson Hike Bike Trail",
    "lat": 42.64841,
    "lon": -73.74772,
    "url": "http://www.singletracks.com/item.php?c=1&i=5293",
    "length": 6,
    "thumb": null,
    "rating": 2.5
  },
  {
    "city": "Great Falls",
    "state": "Montana",
    "country": "United States",
    "name": "Pilgrim Creek",
    "lat": 47.12531,
    "lon": -110.93144,
    "url": "http://www.singletracks.com/item.php?c=1&i=2765",
    "length": 38,
    "thumb": "http://images.singletracks.com/2009/trails/02/2765-1219593741.jpg",
    "rating": 4.5
  },
  {
    "city": "Cairo",
    "state": "All",
    "country": "Egypt",
    "name": "Wadi Degla",
    "lat": 29.95988,
    "lon": 31.33059,
    "url": "http://www.singletracks.com/item.php?c=1&i=3506",
    "length": 19,
    "thumb": null,
    "rating": 0
  },
  {
    "city": "Paradise",
    "state": "California",
    "country": "United States",
    "name": "Paradise Flumes",
    "lat": 39.78546,
    "lon": -121.56325,
    "url": "http://www.singletracks.com/item.php?c=1&i=3825",
    "length": 13,
    "thumb": "http://images.singletracks.com/2010/07/IMG_1115-0.jpg",
    "rating": 0
  },
  {
    "city": "Bellingham",
    "state": "Washington",
    "country": "United States",
    "name": "Bellingham DJ Park",
    "lat": 48.7462,
    "lon": -122.45608,
    "url": "http://www.singletracks.com/item.php?c=1&i=8432",
    "length": 1,
    "thumb": null,
    "rating": 0
  },
  {
    "city": "Sanford",
    "state": "Maine",
    "country": "United States",
    "name": "Back Country Expressway",
    "lat": 43.72306,
    "lon": -70.93083,
    "url": "http://www.singletracks.com/item.php?c=1&i=863",
    "length": 20,
    "thumb": null,
    "rating": 2.5
  },
  {
    "city": "Whangarei",
    "state": "All",
    "country": "New Zealand",
    "name": "Bone Garden",
    "lat": -35.65687,
    "lon": 174.34927,
    "url": "http://www.singletracks.com/item.php?c=1&i=4584",
    "length": 1,
    "thumb": null,
    "rating": 0
  },
  {
    "city": "Fruita",
    "state": "Colorado",
    "country": "United States",
    "name": "Wrangler",
    "lat": 39.17353,
    "lon": -108.83623,
    "url": "http://www.singletracks.com/item.php?c=1&i=5554",
    "length": 6,
    "thumb": "http://images.singletracks.com/2012/07/622720_10151955692975285_240257733_o-0.jpg",
    "rating": 4
  },
  {
    "city": "Fort Collins",
    "state": "Colorado",
    "country": "United States",
    "name": "Beaver Meadows",
    "lat": 0,
    "lon": 0,
    "url": "http://www.singletracks.com/item.php?c=1&i=1693",
    "length": 15,
    "thumb": "http://images.singletracks.com/2009/trails/01/1149527712.jpg",
    "rating": 3.67
  },
  {
    "city": "Plymouth",
    "state": "New Hampshire",
    "country": "United States",
    "name": "Gyro",
    "lat": 43.75829,
    "lon": -71.68346,
    "url": "http://www.singletracks.com/item.php?c=1&i=3707",
    "length": 2,
    "thumb": "http://images.singletracks.com/2011/07/1282-0.jpg",
    "rating": 4
  },
  {
    "city": "Fall Creek Falls",
    "state": "Tennessee",
    "country": "United States",
    "name": "Upper Loop Trail ",
    "lat": 0,
    "lon": 0,
    "url": "http://www.singletracks.com/item.php?c=1&i=5660",
    "length": 14,
    "thumb": null,
    "rating": 5
  },
  {
    "city": "Saint Charles",
    "state": "Missouri",
    "country": "United States",
    "name": "Hamburg Trail",
    "lat": 38.68352,
    "lon": -90.7337,
    "url": "http://www.singletracks.com/item.php?c=1&i=9210",
    "length": 6,
    "thumb": null,
    "rating": 2
  },
  {
    "city": "Waynesboro",
    "state": "Virginia",
    "country": "United States",
    "name": "Sherando Lakes Recreation Area",
    "lat": 37.91876,
    "lon": -79.01856,
    "url": "http://www.singletracks.com/item.php?c=1&i=4659",
    "length": 30,
    "thumb": "http://images.singletracks.com/2013/07/sherando3-0.jpg",
    "rating": 4.33
  },
  {
    "city": "Pittsburgh",
    "state": "Pennsylvania",
    "country": "United States",
    "name": "Boyce Park",
    "lat": 40.46165,
    "lon": -79.74658,
    "url": "http://www.singletracks.com/item.php?c=1&i=4863",
    "length": 20,
    "thumb": "http://images.singletracks.com/2014/05/IMG_0003.jpg",
    "rating": 4.25
  },
  {
    "city": "Cadillac",
    "state": "Michigan",
    "country": "United States",
    "name": "MacKenzie Trail",
    "lat": 44.25003,
    "lon": -85.73405,
    "url": "http://www.singletracks.com/item.php?c=1&i=7898",
    "length": 10,
    "thumb": null,
    "rating": 0
  },
  {
    "city": "Sula",
    "state": "Montana",
    "country": "United States",
    "name": "Warm Springs Trail System",
    "lat": 45.69206,
    "lon": -113.95128,
    "url": "http://www.singletracks.com/item.php?c=1&i=7464",
    "length": 47,
    "thumb": "http://www.singletracks.com/./ra-content/images/uploads/2013/06/WSR-Don-064-0.jpg",
    "rating": 0
  },
  {
    "city": "Kelowna",
    "state": "British Columbia",
    "country": "Canada",
    "name": "Mission Creek Greenway",
    "lat": 49.84275,
    "lon": -119.48748,
    "url": "http://www.singletracks.com/item.php?c=1&i=8893",
    "length": 16,
    "thumb": "http://images.singletracks.com/2014/12/IMG_8640.jpg",
    "rating": 4.5
  },
  {
    "city": "York",
    "state": "Montana",
    "country": "United States",
    "name": "Beartrap Gulch",
    "lat": 46.768,
    "lon": -111.66521,
    "url": "http://www.singletracks.com/item.php?c=1&i=3802",
    "length": 12,
    "thumb": "http://images.singletracks.com/2010/06/PICT1550-0.jpg",
    "rating": 3
  },
  {
    "city": "Salmon",
    "state": "Idaho",
    "country": "United States",
    "name": "CDT - Flume Creek Section",
    "lat": 45.06244,
    "lon": -113.48335,
    "url": "http://www.singletracks.com/item.php?c=1&i=5406",
    "length": 12,
    "thumb": "http://images.singletracks.com/2012/06/cdt-flume-130-0.jpg",
    "rating": 4
  },
  {
    "city": "Mammoth Cave",
    "state": "Kentucky",
    "country": "United States",
    "name": "Brier Creek",
    "lat": 37.29873,
    "lon": -86.21281,
    "url": "http://www.singletracks.com/item.php?c=1&i=6087",
    "length": 5,
    "thumb": "http://images.singletracks.com/2013/06/IMG_1678-0.jpg",
    "rating": 5
  },
  {
    "city": "West Yellowstone",
    "state": "Montana",
    "country": "United States",
    "name": "Mile Creek Trail",
    "lat": 44.76301,
    "lon": -111.44736,
    "url": "http://www.singletracks.com/item.php?c=1&i=8983",
    "length": 7,
    "thumb": "http://images.singletracks.com/2014/08/DSC05479.jpg",
    "rating": 0
  },
  {
    "city": "Dunedin",
    "state": null,
    "country": "New Zealand",
    "name": "Bethunes Gully",
    "lat": -45.83298,
    "lon": 170.55162,
    "url": "http://www.singletracks.com/item.php?c=1&i=10430",
    "length": 4,
    "thumb": "http://images.singletracks.com/2015/03/Q1130049.jpg",
    "rating": 1
  },
  {
    "city": "McArthur",
    "state": "Ohio",
    "country": "United States",
    "name": "Lake Hope State Park",
    "lat": 39.300614,
    "lon": -82.398815,
    "url": "http://www.singletracks.com/item.php?c=1&i=2166",
    "length": 23,
    "thumb": "http://images.singletracks.com/2009/trails/02/2166-1202565337.jpg",
    "rating": 4.24
  },
  {
    "city": "Ellijay",
    "state": "Georgia",
    "country": "United States",
    "name": "River Loop",
    "lat": 34.64645,
    "lon": -84.4383,
    "url": "http://www.singletracks.com/item.php?c=1&i=2627",
    "length": 5,
    "thumb": "http://images.singletracks.com/2011/11/smDH-Dump-2011-003-copy-0.jpg",
    "rating": 3.8
  },
  {
    "city": "Ferdinand",
    "state": "Indiana",
    "country": "United States",
    "name": "Ferdinand Forest",
    "lat": 38.25844,
    "lon": -86.79026,
    "url": "http://www.singletracks.com/item.php?c=1&i=1050",
    "length": 9,
    "thumb": "http://images.singletracks.com/2013/07/mobile-1373675616-0.jpg",
    "rating": 4
  },
  {
    "city": "St Joseph",
    "state": "Missouri",
    "country": "United States",
    "name": "Krug Loop",
    "lat": 39.80126,
    "lon": -94.85137,
    "url": "http://www.singletracks.com/item.php?c=1&i=5604",
    "length": 6,
    "thumb": "http://images.singletracks.com/2013/04/Krug-0.jpg",
    "rating": 3
  },
  {
    "city": "Blue Diamond/ Las Vegas",
    "state": "Nevada",
    "country": "United States",
    "name": "Deadhorse Loop",
    "lat": 35.99723,
    "lon": -115.4468,
    "url": "http://www.singletracks.com/item.php?c=1&i=3561",
    "length": 13,
    "thumb": "http://images.singletracks.com/2014/04/image-15.jpg",
    "rating": 4
  },
  {
    "city": "Blenheim",
    "state": null,
    "country": "New Zealand",
    "name": "Wither Hills Farm Park",
    "lat": -41.54307,
    "lon": 173.96286,
    "url": "http://www.singletracks.com/item.php?c=1&i=10345",
    "length": 20,
    "thumb": "http://images.singletracks.com/2015/02/20150206_170220.jpg",
    "rating": 2
  },
  {
    "city": "Whitmire",
    "state": "South Carolina",
    "country": "United States",
    "name": "Buncombe - Brickhouse Recreation Area",
    "lat": 34.44755,
    "lon": -81.70515,
    "url": "http://www.singletracks.com/item.php?c=1&i=3756",
    "length": 28,
    "thumb": "http://images.singletracks.com/2013/06/IMG_0459-0.jpg",
    "rating": 2.75
  },
  {
    "city": "Mobile",
    "state": "Alabama",
    "country": "United States",
    "name": "Cottage Hill Park",
    "lat": 30.65446,
    "lon": -88.19041,
    "url": "http://www.singletracks.com/item.php?c=1&i=44",
    "length": 3,
    "thumb": null,
    "rating": 1.67
  },
  {
    "city": "Jacksonville",
    "state": "Alabama",
    "country": "United States",
    "name": "Henry Park Trail",
    "lat": 33.78491,
    "lon": -85.76885,
    "url": "http://www.singletracks.com/item.php?c=1&i=5068",
    "length": 4,
    "thumb": "http://images.singletracks.com/2013/12/Henry-Farm-sign-0.jpg",
    "rating": 3.67
  },
  {
    "city": "Waite Park",
    "state": "Minnesota",
    "country": "United States",
    "name": "Quarry Park And Nature Preserve",
    "lat": 45.53552,
    "lon": -94.24182,
    "url": "http://www.singletracks.com/item.php?c=1&i=5247",
    "length": 5,
    "thumb": "http://images.singletracks.com/2012/04/IMAG0247-0.jpg",
    "rating": 3
  },
  {
    "city": "Upper Marlboro",
    "state": "Maryland",
    "country": "United States",
    "name": "Rosaryville State Park",
    "lat": 38.775854,
    "lon": -76.81896,
    "url": "http://www.singletracks.com/item.php?c=1&i=985",
    "length": 10,
    "thumb": "http://images.singletracks.com/2014/06/12655677345_7a713c33a7_o.jpg",
    "rating": 4.42
  },
  {
    "city": "Greenville",
    "state": "Michigan",
    "country": "United States",
    "name": "Shearer Rd Trail",
    "lat": 43.19395,
    "lon": -85.26924,
    "url": "http://www.singletracks.com/item.php?c=1&i=2740",
    "length": 4,
    "thumb": "http://images.singletracks.com/2013/08/20130621_140825-0.jpg",
    "rating": 3.57
  },
  {
    "city": "Burlington",
    "state": "Vermont",
    "country": "United States",
    "name": "Rock Point ",
    "lat": 44.49862,
    "lon": -73.24581,
    "url": "http://www.singletracks.com/item.php?c=1&i=5652",
    "length": 2,
    "thumb": null,
    "rating": 4
  },
  {
    "city": "Istanbul",
    "state": null,
    "country": "Turkey",
    "name": "Belgrad Forest",
    "lat": 0,
    "lon": 0,
    "url": "http://www.singletracks.com/item.php?c=1&i=10225",
    "length": 40,
    "thumb": "http://images.singletracks.com/2015/01/IMG_0840.jpg",
    "rating": 5
  },
  {
    "city": "Telluride",
    "state": "Colorado",
    "country": "United States",
    "name": "River Trail",
    "lat": 37.93431,
    "lon": -107.81194,
    "url": "http://www.singletracks.com/item.php?c=1&i=884",
    "length": 4,
    "thumb": "http://images.singletracks.com/2009/trails/01/1086056545.jpg",
    "rating": 2.5
  },
  {
    "city": "Streator",
    "state": "Illinois",
    "country": "United States",
    "name": "Spring Lake Park",
    "lat": 41.13579,
    "lon": -88.86169,
    "url": "http://www.singletracks.com/item.php?c=1&i=9295",
    "length": 3,
    "thumb": null,
    "rating": 0
  },
  {
    "city": "Glen Rose",
    "state": "Texas",
    "country": "United States",
    "name": "Dinosaur Valley State Park",
    "lat": 32.249565,
    "lon": -97.814267,
    "url": "http://www.singletracks.com/item.php?c=1&i=4377",
    "length": 17,
    "thumb": "http://images.singletracks.com/2011/03/P1010175-Large-e-mail-view-0.jpg",
    "rating": 4.5
  },
  {
    "city": "Santa Barbara",
    "state": "California",
    "country": "United States",
    "name": "Little Pine Mtn",
    "lat": 34.55756,
    "lon": -119.77114,
    "url": "http://www.singletracks.com/item.php?c=1&i=5008",
    "length": 17,
    "thumb": "http://images.singletracks.com/2012/10/cdv_photo_004-2.jpg",
    "rating": 4
  },
  {
    "city": "Eversley",
    "state": null,
    "country": "United Kingdom",
    "name": "Warren Heath Hack",
    "lat": 51.34583,
    "lon": -0.90987,
    "url": "http://www.singletracks.com/item.php?c=1&i=8866",
    "length": 4,
    "thumb": null,
    "rating": 0
  },
  {
    "city": "Alpine",
    "state": "California",
    "country": "United States",
    "name": "Sagebrush /lake Morena",
    "lat": 32.73563,
    "lon": -116.55747,
    "url": "http://www.singletracks.com/item.php?c=1&i=1150",
    "length": 10,
    "thumb": null,
    "rating": 0
  },
  {
    "city": "Gainesville",
    "state": "Florida",
    "country": "United States",
    "name": "Hogtown Creek Greenway",
    "lat": 29.65498,
    "lon": -82.37196,
    "url": "http://www.singletracks.com/item.php?c=1&i=133",
    "length": 1,
    "thumb": "http://images.singletracks.com/2011/03/P3160480-0.jpg",
    "rating": 2.6
  },
  {
    "city": "Stanley",
    "state": "Idaho",
    "country": "United States",
    "name": "Joe's Gulch To Nip 'n Tuck",
    "lat": 0,
    "lon": 0,
    "url": "http://www.singletracks.com/item.php?c=1&i=2642",
    "length": 11,
    "thumb": "http://images.singletracks.com/2009/trails/02/2642-1214188836.jpg",
    "rating": 0
  },
  {
    "city": "Parks",
    "state": "Arizona",
    "country": "United States",
    "name": "Coxcomb Mountain Bike Trail",
    "lat": 35.36559,
    "lon": -112.04198,
    "url": "http://www.singletracks.com/item.php?c=1&i=9547",
    "length": 8,
    "thumb": "http://images.singletracks.com/2014/10/coxcomb_trail_map.jpg",
    "rating": 0
  },
  {
    "city": "Sag Harbor",
    "state": "New York",
    "country": "United States",
    "name": "Long Pond Green Belt",
    "lat": 0,
    "lon": 0,
    "url": "http://www.singletracks.com/item.php?c=1&i=1309",
    "length": 7,
    "thumb": "http://images.singletracks.com/2009/trails/01/1309-1222440044.jpg",
    "rating": 3
  },
  {
    "city": "Las Cruces",
    "state": "New Mexico",
    "country": "United States",
    "name": "A Mountain Trail",
    "lat": 32.28735,
    "lon": -106.71071,
    "url": "http://www.singletracks.com/item.php?c=1&i=1849",
    "length": 5,
    "thumb": "http://images.singletracks.com/2014/11/image64089.jpg",
    "rating": 3.33
  }
]